City_ID,City,Lat,Lng,Max Temp,Humidity,Cloudiness,Wind Speed,Country,Date
0,edinburgh of the seven seas,-37.0676,-12.3116,9.900000000000034,76,77,15.43,SH,1691185583
1,isangel,-19.55,169.2667,21.160000000000025,90,91,6.9,VU,1691185585
2,bethel,41.3712,-73.414,24.200000000000045,78,100,4.12,US,1691185585
3,punta arenas,-53.15,-70.9167,3.3500000000000227,75,99,8.92,CL,1691185517
4,port-aux-francais,-49.35,70.2167,2.170000000000016,66,99,8.04,TF,1691185586
5,adamstown,-25.066,-130.1015,18.55000000000001,53,58,4.86,PN,1691185587
6,waitangi,-43.9535,-176.5597,7.680000000000007,78,99,2.68,NZ,1691185589
7,malvan,16.0667,73.4667,26.28000000000003,85,31,5.62,IN,1691185589
8,howrah,22.5892,88.3103,29.0,89,75,4.63,IN,1691185416
9,grytviken,-54.2811,-36.5092,-3.4899999999999523,77,56,2.66,GS,1691185591
10,rath,25.5833,79.5667,26.129999999999995,89,100,4.79,IN,1691185592
11,kingsville,27.5159,-97.8561,41.23000000000002,48,20,9.77,US,1691185593
12,papatowai,-46.5619,169.4708,5.310000000000002,84,99,2.9,NZ,1691185594
13,klyuchi,52.2667,79.1667,18.960000000000036,78,100,2.16,RU,1691185596
14,iqaluit,63.7506,-68.5145,13.850000000000023,67,75,3.6,CA,1691185597
15,stanley,54.868,-1.6985,12.379999999999995,89,20,1.54,GB,1691185598
16,carnarvon,-24.8667,113.6333,16.670000000000016,71,0,5.95,AU,1691185598
17,pontes e lacerda,-15.2261,-59.3353,29.200000000000045,28,5,0.66,BR,1691185599
18,albany,42.6001,-73.9662,22.25,86,73,3.49,US,1691185356
19,longyearbyen,78.2186,15.6401,11.910000000000025,94,75,1.03,SJ,1691185600
20,enewetak,11.3474,162.3373,28.52000000000004,78,91,5.9,MH,1691185601
21,magong,23.5654,119.5863,29.04000000000002,85,100,11.33,TW,1691185601
22,kuanda,56.3161,116.0806,17.370000000000005,56,81,2.4,RU,1691185602
23,tiksi,71.6872,128.8694,4.28000000000003,89,94,1.44,RU,1691185602
24,smithers,54.7804,-127.1743,26.180000000000007,21,20,1.54,CA,1691185603
25,sidi alouane,35.3751,10.939,25.640000000000043,58,20,10.8,TN,1691185604
26,kozyatyn,49.7143,28.8339,23.129999999999995,57,0,3.97,UA,1691185604
27,bucerias,20.75,-105.3333,30.99000000000001,70,75,3.6,MX,1691185605
28,nizhneudinsk,54.9076,99.0276,14.470000000000027,97,87,1.61,RU,1691185605
29,itoman,26.1247,127.6694,27.430000000000007,96,75,20.06,JP,1691185607
30,moyale,3.5167,39.0584,21.379999999999995,54,94,2.99,KE,1691185607
31,kavaratti,10.5669,72.642,28.52000000000004,73,65,7.78,IN,1691185607
32,ribeira grande,38.5167,-28.7,22.100000000000023,83,49,1.34,PT,1691185608
33,kyaikkami,16.08,97.5675,26.460000000000036,85,98,5.76,MM,1691185608
34,puerto ayora,-0.7393,-90.3518,31.980000000000018,93,59,4.02,EC,1691185609
35,kollo,13.3043,2.339,30.24000000000001,58,73,7.27,NE,1691185609
36,wailua homesteads,22.0669,-159.378,29.24000000000001,73,40,7.2,US,1691185610
37,utrik,11.2278,169.8474,28.400000000000034,72,97,7.66,MH,1691185610
38,tura,25.5198,90.2201,23.600000000000023,98,100,3.14,IN,1691185611
39,margaret river,-33.95,115.0667,8.890000000000043,87,97,3.78,AU,1691185611
40,remire-montjoly,4.9167,-52.2667,28.02000000000004,74,0,3.09,GF,1691185612
41,kristinestad,62.2743,21.376,15.050000000000011,94,39,2.19,FI,1691185612
42,tazovsky,67.4667,78.7,13.879999999999995,67,6,3.08,RU,1691185613
43,verkhovazh'ye,60.7472,42.0465,16.480000000000018,98,56,2.23,RU,1691185613
44,mount gambier,-37.8333,140.7667,9.180000000000007,75,100,2.9,AU,1691185614
45,eureka,40.8021,-124.1637,29.82000000000005,76,26,1.79,US,1691185614
46,waat,51.1454,6.4958,16.610000000000014,92,75,1.54,DE,1691185615
47,el hadjira,32.6134,5.5126,36.379999999999995,19,0,11.54,DZ,1691185615
48,qaqortoq,60.7167,-46.0333,6.140000000000043,84,48,2.53,GL,1691185616
49,sukhodol,53.9006,51.2117,19.860000000000014,67,21,0.88,RU,1691185616
50,lompoc,34.6391,-120.4579,27.140000000000043,73,100,11.62,US,1691185616
51,hamilton,39.1834,-84.5333,33.29000000000002,49,0,2.06,US,1691185515
52,xochitlan todos santos,18.7,-97.7833,22.430000000000007,57,100,2.23,MX,1691185619
53,fort bragg,35.139,-79.006,27.75,79,100,2.57,US,1691185620
54,alice springs,-23.7,133.8833,11.75,82,0,2.57,AU,1691185620
55,saudarkrokur,65.7461,-19.6394,9.800000000000011,76,84,1.87,IS,1691185621
56,magadan,59.5667,150.8,17.52000000000004,61,100,3.46,RU,1691185621
57,hermanus,-34.4187,19.2345,13.78000000000003,81,27,3.72,ZA,1691185623
58,georgetown,5.4112,100.3354,27.960000000000036,92,20,1.03,MY,1691185492
59,badger,64.8,-147.5333,25.28000000000003,50,75,0.45,US,1691185625
60,taltal,-25.4,-70.4833,15.650000000000034,85,32,1.76,CL,1691185626
61,taitung city,22.7583,121.1444,28.05000000000001,83,100,5.16,TW,1691185626
62,arteche,12.2645,125.4048,25.80000000000001,86,3,1.89,PH,1691185627
63,huarmey,-10.0681,-78.1522,21.08000000000004,73,2,4.22,PE,1691185627
64,tamandare,-8.7597,-35.1047,23.010000000000048,72,10,3.09,BR,1691185628
65,sesheke,-17.4759,24.2968,13.050000000000011,50,0,2.47,ZM,1691185629
66,ravar,31.2656,56.8055,26.900000000000034,18,0,1.45,IR,1691185629
67,novodvinsk,64.4165,40.8122,17.5,97,100,2.34,RU,1691185630
68,vorgashor,67.5833,63.95,18.83000000000004,73,9,1.83,RU,1691185630
69,kichmengskiy gorodok,59.9816,45.7854,17.879999999999995,99,100,1.63,RU,1691185631
70,kapuskasing,49.4169,-82.4331,22.05000000000001,49,75,4.12,CA,1691185366
71,san luis de la loma,17.2706,-100.8939,25.850000000000023,86,100,2.9,MX,1691185632
72,midvagur,62.0511,-7.1939,8.460000000000036,100,99,0.51,FO,1691185633
73,pingliang,35.5392,106.6861,22.439999999999998,76,73,0.93,CN,1691185634
74,qamdo,31.1667,97.2333,5.640000000000043,85,99,1.12,CN,1691185634
75,belokurikha,51.9959,84.9896,16.5,94,70,1.66,RU,1691185635
76,bredasdorp,-34.5322,20.0403,10.210000000000036,93,9,3.2,ZA,1691185635
77,college,64.8569,-147.8028,25.32000000000005,52,75,0.0,US,1691185636
78,anadyr,64.75,177.4833,11.28000000000003,87,100,9.0,RU,1691185637
79,taroa,8.7058,171.2275,28.110000000000014,71,76,7.22,MH,1691185637
80,kirensk,57.7853,108.1119,14.75,97,31,0.76,RU,1691185638
81,tsiombe,-25.3,45.4833,18.49000000000001,65,0,6.32,MG,1691185639
82,new norfolk,-42.7826,147.0587,9.400000000000034,84,100,3.95,AU,1691185639
83,toliara,-23.35,43.6667,21.83000000000004,57,28,4.49,MG,1691185640
84,oulainen,64.2667,24.8,15.450000000000045,95,97,0.89,FI,1691185642
85,puerto natales,-51.7236,-72.4875,3.0400000000000205,72,38,4.87,CL,1691185643
86,forster,-32.1667,152.5167,12.840000000000032,60,100,2.2,AU,1691185643
87,tadine,-21.55,167.8833,18.680000000000007,88,100,13.08,NC,1691185644
88,hawaiian paradise park,19.5933,-154.9731,27.730000000000018,79,75,3.6,US,1691185644
89,giado,31.9582,12.0203,32.06,19,0,6.18,LY,1691185645
90,prince rupert,54.3161,-130.3201,21.05000000000001,68,0,3.6,CA,1691185511
91,nyurba,63.2842,118.3319,16.28000000000003,67,96,2.0,RU,1691185646
92,thurso,58.5927,-3.5259,10.140000000000043,76,78,1.14,GB,1691185646
93,lethem,3.3803,-59.7968,28.470000000000027,73,90,0.81,GY,1691185647
94,east london,-33.0153,27.9116,21.090000000000032,40,75,2.25,ZA,1691185647
95,san juan de miraflores,-12.1629,-76.9635,21.29000000000002,75,50,2.9,PE,1691185648
96,thinadhoo,0.5333,72.9333,27.08000000000004,73,94,1.2,MV,1691185649
97,petropavlovsk-kamchatsky,53.0452,158.6483,16.33000000000004,67,20,3.0,RU,1691185649
98,haiku-pauwela,20.9219,-156.3051,28.010000000000048,57,20,11.83,US,1691185650
99,nagqu,31.5,92.0,6.430000000000007,91,100,2.38,CN,1691185651
100,port elizabeth,-33.918,25.5701,18.160000000000025,72,0,4.63,ZA,1691185531
101,fort mcmurray,56.7268,-111.381,23.77000000000004,49,20,4.63,CA,1691185356
102,port alfred,-33.5906,26.891,19.980000000000018,47,100,3.72,ZA,1691185653
103,peseux,46.987,6.889,15.460000000000036,81,75,2.57,CH,1691185653
104,constantia,44.1833,28.65,21.5,83,0,4.73,RO,1691185461
105,olonkinbyen,70.9221,-8.7187,3.5600000000000023,92,100,11.68,SJ,1691185654
106,ushuaia,-54.8,-68.3,0.8100000000000023,75,40,11.32,AR,1691185655
107,tondano,1.3038,124.9112,19.05000000000001,92,89,1.07,ID,1691185655
108,fedorovskiy,45.0972,40.9517,22.900000000000034,56,0,3.53,RU,1691185656
109,birjand,32.8663,59.2211,25.260000000000048,22,0,3.09,IR,1691185656
110,chibougamau,49.9168,-74.3659,15.79000000000002,88,100,4.63,CA,1691185656
111,vadso,70.0744,29.7487,18.49000000000001,88,20,4.12,NO,1691185657
112,mareeba,-17.0,145.4333,16.400000000000034,90,23,3.06,AU,1691185657
113,gadzhiyevo,69.2551,33.3362,17.24000000000001,86,100,2.81,RU,1691185658
114,nyala,12.05,24.8833,24.02000000000004,80,100,6.39,SD,1691185634
115,nishinoomote,30.7333,131.0,27.450000000000045,87,100,6.96,JP,1691185659
116,yuzhno-kurilsk,44.0306,145.8556,13.950000000000045,95,100,4.1,RU,1691185660
117,greenville,35.6127,-77.3663,26.090000000000032,97,100,2.06,US,1691185515
118,alvaraes,-3.2208,-64.8042,28.930000000000007,76,82,0.37,BR,1691185660
119,nemuro,43.3236,145.575,14.07000000000005,95,100,6.08,JP,1691185661
120,prado,-17.3411,-39.2208,21.980000000000018,80,0,3.58,BR,1691185661
121,davyd-haradok,52.0566,27.2161,17.970000000000027,89,61,1.84,BY,1691185662
122,scarborough,54.2797,-0.4044,12.760000000000048,90,100,0.45,GB,1691185380
123,miri,4.4148,114.0089,25.08000000000004,100,40,1.54,MY,1691185663
124,fort st. john,56.2499,-120.8529,22.939999999999998,43,40,4.63,CA,1691185505
125,lebu,-37.6167,-73.65,9.890000000000043,79,100,6.62,CL,1691185664
126,chinsali,-10.5414,32.0816,13.590000000000032,63,2,3.3,ZM,1691185665
127,alofi,-19.0595,-169.9187,21.939999999999998,100,100,7.72,NU,1691185665
128,kolonia town,6.964,158.206,26.0,94,100,2.06,FM,1691185666
129,redding,40.5865,-122.3917,37.57000000000005,23,0,3.6,US,1691185657
130,port douglas,-16.4833,145.4667,20.400000000000034,76,82,6.75,AU,1691185666
131,mahina,-17.5065,-149.489,26.870000000000005,69,75,5.14,PF,1691185667
132,celestun,20.8667,-90.4,29.78000000000003,72,59,6.93,MX,1691185668
133,blackmans bay,-43.0167,147.3167,8.740000000000009,74,100,6.42,AU,1691185669
134,ilulissat,69.2167,-51.1,8.010000000000048,71,75,1.54,GL,1691185669
135,sakaraha,-22.9,44.5333,15.900000000000034,66,3,2.09,MG,1691185670
136,kabare,-2.4683,28.8242,17.010000000000048,73,78,0.48,CD,1691185670
137,jamestown,42.097,-79.2353,26.120000000000005,55,0,5.66,US,1691185539
138,cheremukhovo,60.3484,59.9851,15.510000000000048,96,43,1.68,RU,1691185671
139,kodiak,57.79,-152.4072,13.730000000000018,77,100,3.09,US,1691185672
140,nguigmi,14.2495,13.1092,28.810000000000002,66,83,3.95,NE,1691185672
141,tual,-5.6667,132.75,25.939999999999998,81,52,10.35,ID,1691185673
142,egilsstadir,65.2653,-14.3948,9.950000000000045,71,20,3.09,IS,1691185673
143,nar'yan-mar,67.6713,53.087,20.27000000000004,72,60,3.35,RU,1691185674
144,keflavik,64.0049,-22.5624,12.240000000000009,76,100,1.54,IS,1691185674
145,kailua-kona,19.6406,-155.9956,28.980000000000018,70,20,6.69,US,1691185675
146,sao jose da coroa grande,-8.8978,-35.1478,23.08000000000004,70,8,3.1,BR,1691185677
147,robore,-18.3333,-59.75,34.05000000000001,52,0,0.0,BO,1691185678
148,nieul-sur-mer,46.2058,-1.1645,17.140000000000043,77,20,7.2,FR,1691185678
149,cidreira,-30.1811,-50.2056,17.760000000000048,90,68,0.26,BR,1691185679
150,invercargill,-46.4,168.35,2.230000000000018,99,100,1.34,NZ,1691185659
151,kralendijk,12.15,-68.2667,30.99000000000001,66,40,7.72,BQ,1691185681
152,fortaleza,-3.7227,-38.5247,27.07000000000005,74,0,5.14,BR,1691185203
153,honiara,-9.4333,159.95,25.720000000000027,91,98,2.28,SB,1691185682
154,praia da vitoria,38.7333,-27.0667,24.140000000000043,73,20,4.57,PT,1691185683
155,meads,38.4126,-82.7091,32.94,43,20,3.13,US,1691185683
156,palikir - national government center,6.9248,158.1611,25.410000000000025,94,100,2.06,FM,1691185684
157,klaksvik,62.2266,-6.589,8.510000000000048,81,100,1.97,FO,1691185685
158,puerto deseado,-47.7503,-65.8938,4.75,62,0,3.17,AR,1691185685
159,saipan,15.1355,145.701,28.689999999999998,100,0,1.54,MP,1691185686
160,palembang,-2.9167,104.7458,25.05000000000001,88,40,1.54,ID,1691185687
161,aykhal,66.0,111.5,8.5,96,100,5.56,RU,1691185690
162,qoryooley,1.7878,44.53,23.390000000000043,87,62,5.59,SO,1691185691
163,oranjemund,-28.55,16.4333,12.650000000000034,85,0,1.4,NA,1691185691
164,davos,46.8043,9.8372,8.950000000000045,99,100,3.26,CH,1691185692
165,bilibino,68.0546,166.4372,6.330000000000041,91,100,3.75,RU,1691185693
166,kualakapuas,-3.0091,114.3876,23.32000000000005,95,2,1.4,ID,1691185693
167,codrington,-38.2667,141.9667,10.370000000000005,68,100,5.89,AU,1691185694
168,takestan,36.0696,49.6959,20.28000000000003,56,98,5.17,IR,1691185694
169,talnakh,69.4865,88.3972,14.560000000000002,57,52,0.61,RU,1691185695
170,viedma,-40.8135,-62.9967,7.330000000000041,52,0,1.77,AR,1691185695
171,tallahassee,30.4383,-84.2807,36.910000000000025,60,40,4.12,US,1691185622
172,umm kaddadah,13.6017,26.6876,25.900000000000034,66,100,3.15,SD,1691185697
173,nelidovo,56.2211,32.7774,17.310000000000002,84,23,2.5,RU,1691185698
174,manokwari,-0.8667,134.0833,25.420000000000016,74,97,1.47,ID,1691185698
175,qui nhon,13.7667,109.2333,27.33000000000004,76,98,3.01,VN,1691185699
176,puerto colombia,10.9878,-74.9547,32.05000000000001,80,17,8.94,CO,1691185700
177,tazacorte,28.629,-17.9293,23.54000000000002,94,20,7.72,ES,1691185700
178,stanovoye,52.7638,38.3582,20.52000000000004,71,3,3.11,RU,1691185701
179,sarangani,5.4033,125.4636,28.04000000000002,78,67,2.16,PH,1691185701
180,polyarnyy,69.1989,33.4478,17.32000000000005,86,100,2.97,RU,1691185702
181,rongelap,11.1635,166.8941,28.230000000000018,80,100,6.14,MH,1691185703
182,ashibetsu,43.5097,142.1856,22.120000000000005,99,100,0.86,JP,1691185704
183,port lincoln,-34.7333,135.8667,11.79000000000002,60,92,3.83,AU,1691185704
184,port mathurin,-19.6833,63.4167,23.210000000000036,70,4,10.53,MU,1691185705
185,neiafu,-18.65,-173.9833,22.379999999999995,88,100,5.14,TO,1691185705
186,phibun mangsahan,15.2447,105.2291,25.99000000000001,98,100,2.98,TH,1691185706
187,avarua,-21.2078,-159.775,25.03000000000003,73,100,2.57,CK,1691185561
188,faya-largeau,17.9257,19.1043,31.980000000000018,46,9,8.48,TD,1691185708
189,smara,26.7384,-11.6719,21.24000000000001,67,0,6.44,EH,1691185708
190,nova sintra,14.8667,-24.7167,23.620000000000005,84,41,3.64,CV,1691185709
191,churachandpur,24.3333,93.6667,20.02000000000004,99,100,1.08,IN,1691185710
192,uturoa,-16.7333,-151.4333,25.910000000000025,77,34,5.07,PF,1691185710
193,bengkulu,-3.8004,102.2655,24.170000000000016,91,26,2.72,ID,1691185711
194,nizhnyaya omka,55.4338,74.9426,18.220000000000027,85,97,1.72,RU,1691185711
195,alpine,32.835,-116.7664,34.420000000000016,41,0,5.14,US,1691185712
196,hasaki,35.7333,140.8333,29.610000000000014,83,0,6.0,JP,1691185712
197,acarau,-2.8856,-40.12,25.640000000000043,78,22,7.79,BR,1691185711
198,korenovsk,45.4686,39.4519,24.010000000000048,54,0,3.51,RU,1691185713
199,dryden,49.7833,-92.7503,26.160000000000025,44,20,3.09,CA,1691185601
200,mar del plata,-38.0023,-57.5575,11.010000000000048,78,0,3.6,AR,1691185654
201,margate,51.3813,1.3862,16.610000000000014,91,80,0.45,GB,1691185714
202,whitehorse,60.7161,-135.0538,24.430000000000007,41,20,3.6,CA,1691185715
203,boguchany,58.3814,97.4531,6.180000000000007,94,2,1.63,RU,1691185715
204,san antonio de pale,-1.4014,5.6325,22.600000000000023,80,19,3.52,GQ,1691185716
205,luderitz,-26.6481,15.1594,12.970000000000027,73,1,2.78,NA,1691185716
206,ta`u,-14.2336,-169.5144,26.890000000000043,80,40,7.72,AS,1691185717
207,rio guayabal de yateras,20.3667,-75.0167,27.590000000000032,77,56,1.44,CU,1691185717
208,ola,59.5833,151.2833,17.860000000000014,63,100,3.55,RU,1691185718
209,dudinka,69.4058,86.1778,14.79000000000002,60,57,3.11,RU,1691185718
210,kemin,42.7846,75.6892,20.910000000000025,34,19,1.95,KG,1691185719
211,yellowknife,62.456,-114.3525,24.29000000000002,46,75,7.2,CA,1691185719
212,ust-nera,64.5667,143.2,16.730000000000018,47,55,2.39,RU,1691185720
213,norilsk,69.3535,88.2027,14.680000000000007,57,48,0.69,RU,1691185720
214,reggane,26.7158,0.1714,40.69,8,0,3.53,DZ,1691185721
215,la passe,45.5549,-0.8967,17.210000000000036,79,32,4.71,FR,1691185721
216,mitu,1.1983,-70.1733,25.060000000000002,88,76,0.95,CO,1691185722
217,happy valley-goose bay,53.3168,-60.3315,18.170000000000016,82,100,0.0,CA,1691185722
218,progreso,21.2833,-89.6667,27.060000000000002,72,33,7.31,MX,1691185511
219,mejit,10.2753,170.8646,28.33000000000004,71,56,7.12,MH,1691185724
220,kletnya,53.3897,33.2171,18.460000000000036,74,18,0.69,RU,1691185724
221,udachny,66.4167,112.4,8.03000000000003,100,100,5.63,RU,1691185725
222,dubna,56.7333,37.1667,18.08000000000004,80,42,2.09,RU,1691185725
223,marshall,34.3834,-86.3333,28.510000000000048,72,40,0.45,US,1691185726
224,hovd,48.0056,91.6419,17.99000000000001,45,3,1.75,MN,1691185726
225,kapa'a,22.0752,-159.319,29.99000000000001,73,40,7.2,US,1691185727
226,mont-dore,-22.2833,166.5833,20.0,99,98,8.31,NC,1691185727
227,pizhou,34.3114,117.9503,25.74000000000001,93,66,2.08,CN,1691185728
228,iskateley,67.6803,53.1512,20.410000000000025,71,63,3.28,RU,1691185729
229,roma,43.2128,-75.4557,25.460000000000036,81,40,3.6,US,1691185664
230,port saint john's,-31.6229,29.5448,19.370000000000005,40,92,2.37,ZA,1691185730
231,san felipe,10.3399,-68.7425,29.30000000000001,64,84,1.25,VE,1691185730
232,ciudad lazaro cardenas,17.9583,-102.2,25.980000000000018,86,100,4.25,MX,1691185731
233,pimentel,-6.8367,-79.9342,25.160000000000025,61,100,4.12,PE,1691185731
234,sao borja,-28.6606,-56.0044,24.410000000000025,53,0,2.85,BR,1691185732
235,acapulco de juarez,16.8634,-99.8901,25.900000000000034,89,100,3.09,MX,1691185718
236,salinas,36.6777,-121.6555,32.78000000000003,72,0,6.69,US,1691185733
237,kingston,17.997,-76.7936,31.53000000000003,80,75,6.17,JM,1691185543
238,kindu,-2.95,25.95,25.230000000000018,54,100,0.79,CD,1691185734
239,meghraj,23.5,73.5,25.629999999999995,88,100,4.5,IN,1691185735
240,mezzouna,34.5776,9.8419,24.460000000000036,55,10,11.97,TN,1691185735
241,alta,69.9689,23.2717,15.590000000000032,82,100,8.75,NO,1691185736
242,prachuap khiri khan,12.2167,99.75,24.210000000000036,82,95,2.84,TH,1691185736
243,jackson,42.4165,-122.8345,32.23000000000002,34,0,1.54,US,1691185447
244,west island,-12.1568,96.8225,24.99000000000001,94,100,8.75,CC,1691185737
245,thompson,55.7435,-97.8558,23.090000000000032,73,75,2.06,CA,1691185738
246,armacao de buzios,-22.7469,-41.8817,22.03000000000003,84,0,2.37,BR,1691185738
247,trosa,58.8962,17.5481,14.230000000000018,89,28,0.32,SE,1691185739
248,huilong,31.8111,121.655,28.850000000000023,94,29,4.11,CN,1691185740
249,ascension,30.2169,-90.9001,38.120000000000005,46,0,1.54,US,1691185740
250,monteagudo,-19.8167,-63.9833,21.52000000000004,24,0,0.67,BO,1691185741
251,choibalsan,48.0667,114.5,12.950000000000045,81,82,2.77,MN,1691185742
252,lihue,21.9789,-159.3672,29.58000000000004,65,40,7.2,US,1691185587
253,elk city,35.412,-99.4043,38.99000000000001,25,0,3.6,US,1691185742
254,kone,-21.0595,164.8658,21.450000000000045,65,53,3.42,NC,1691185743
255,arraial do cabo,-22.9661,-42.0278,20.920000000000016,88,0,2.57,BR,1691185565
256,hithadhoo,-0.6,73.0833,27.379999999999995,73,96,2.78,MV,1691185744
257,taulaga,-11.0553,-171.0883,27.78000000000003,77,91,6.67,AS,1691185745
258,montevideo,-34.8335,-56.1674,12.010000000000048,60,0,1.03,UY,1691185724
259,al bawiti,28.3492,28.8659,29.74000000000001,23,0,3.05,EG,1691185745
260,lejanias,3.5251,-74.0216,24.660000000000025,89,39,0.93,CO,1691185746
261,weno,7.4515,151.8468,27.110000000000014,80,97,0.96,FM,1691185746
262,selendi,38.7444,28.8678,26.710000000000036,37,0,0.77,TR,1691185747
263,dolores,-36.3132,-57.6792,8.870000000000005,58,0,2.4,AR,1691185747
264,calvinia,-31.4707,19.776,10.970000000000027,40,1,1.34,ZA,1691185748
265,afaahiti,-17.75,-149.2833,25.930000000000007,78,85,6.19,PF,1691185748
266,gangneung,37.7556,128.8961,29.310000000000002,77,6,2.95,KR,1691185749
267,kegeyli shahar,42.7767,59.6078,29.05000000000001,30,43,3.92,UZ,1691185749
268,sandnessjoen,66.0217,12.6316,12.29000000000002,93,75,2.06,NO,1691185750
269,susuman,62.7833,148.1667,12.620000000000005,49,9,1.56,RU,1691185750
270,buka,40.8108,69.1986,23.08000000000004,24,0,1.52,UZ,1691185751
271,jeddah,21.5169,39.2192,32.920000000000016,35,0,1.54,SA,1691185751
272,aasiaat,68.7098,-52.8699,3.3500000000000227,87,98,2.15,GL,1691185752
273,namibe,-15.1961,12.1522,17.49000000000001,75,3,1.16,AO,1691185752
274,glace bay,46.1969,-59.957,21.720000000000027,71,40,7.2,CA,1691185753
275,myanaung,18.2833,95.3167,25.58000000000004,82,99,2.07,MM,1691185754
276,tralee,52.2704,-9.7026,13.060000000000002,94,100,4.38,IE,1691185754
277,st. john's,47.5649,-52.7093,18.640000000000043,80,20,3.09,CA,1691185492
278,dakhla,23.6848,-15.958,21.010000000000048,88,0,11.32,EH,1691185755
279,port shepstone,-30.7414,30.455,17.970000000000027,55,100,3.55,ZA,1691185756
280,iquique,-20.2208,-70.1431,19.02000000000004,78,18,2.31,CL,1691185756
281,juneau,58.3019,-134.4197,22.28000000000003,100,40,4.63,US,1691185756
282,linxia chengguanzhen,35.6003,103.2064,17.720000000000027,74,77,1.63,CN,1691185757
283,port-gentil,-0.7193,8.7815,23.980000000000018,83,100,3.09,GA,1691185757
284,kendari,-3.945,122.4989,22.700000000000045,95,42,1.32,ID,1691185758
285,nuuk,64.1835,-51.7216,6.340000000000032,100,100,9.26,GL,1691185759
286,kamina,-8.7386,24.9906,17.350000000000023,40,0,2.04,CD,1691185759
287,saint marys,30.7305,-81.5465,28.33000000000004,80,94,4.12,US,1691185760
288,yuncheng,35.0231,110.9928,28.640000000000043,67,28,1.13,CN,1691185761
289,abu jibeha,11.4562,31.2285,23.960000000000036,71,49,1.29,SD,1691185762
290,chiredzi,-21.05,31.6667,13.960000000000036,65,1,0.76,ZW,1691185762
291,urumqi,43.801,87.6005,26.53000000000003,32,0,3.0,CN,1691185763
292,arsen'yev,44.1631,133.2733,18.100000000000023,99,100,1.55,RU,1691185763
293,paracuru,-3.41,-39.0306,26.730000000000018,79,24,6.49,BR,1691185764
294,atafu village,-8.5421,-172.5159,28.27000000000004,73,58,6.03,TK,1691185764
295,hammerfest,70.6634,23.6821,13.25,94,75,2.06,NO,1691185765
296,douentza,14.9951,-2.9517,31.200000000000045,53,79,3.5,ML,1691185765
297,vangaindrano,-23.35,47.6,18.99000000000001,73,100,2.48,MG,1691185766
298,quellon,-43.1167,-73.6167,8.140000000000043,93,75,0.0,CL,1691185766
299,tayu,-6.5397,111.0518,23.160000000000025,78,24,3.65,ID,1691185767
300,guaranesia,-21.2992,-46.8025,20.110000000000014,33,0,1.5,BR,1691185767
301,isafjordur,66.0755,-23.124,10.879999999999995,70,100,2.17,IS,1691185768
302,de aar,-30.6497,24.0123,11.270000000000039,46,17,2.87,ZA,1691185768
303,hajduhadhaz,47.6833,21.6667,22.720000000000027,69,66,4.89,HU,1691185769
304,cabo san lucas,22.8909,-109.9124,35.900000000000034,66,8,2.49,MX,1691185769
305,luanda,-8.8368,13.2343,22.0,83,75,3.6,AO,1691185633
306,quincy,42.2529,-71.0023,26.340000000000032,73,75,7.72,US,1691185548
307,mirnyy,62.5353,113.9611,14.020000000000039,82,100,4.92,RU,1691185772
308,hastings,50.8552,0.5729,16.660000000000025,31,100,3.97,GB,1691185773
309,kitui,-1.367,38.0106,15.920000000000016,73,98,2.41,KE,1691185773
310,defuniak springs,30.721,-86.1152,38.79000000000002,44,40,3.09,US,1691185506
311,eenhana,-17.4667,16.3333,15.28000000000003,31,0,3.16,NA,1691185774
312,hargeysa,9.56,44.065,23.77000000000004,43,100,12.49,SO,1691185774
313,iskushuban,10.2837,50.23,27.75,50,99,9.94,SO,1691185775
314,xilin hot,43.9667,116.0333,13.370000000000005,85,0,2.4,CN,1691185775
315,gereida,11.2811,25.1414,23.980000000000018,85,100,4.41,SD,1691185776
316,az zulfi,26.2995,44.8154,31.410000000000025,12,0,3.24,SA,1691185776
317,mugia,43.1041,-9.2179,17.730000000000018,76,5,7.88,ES,1691185777
318,phillip island,-38.4835,145.231,10.270000000000039,92,100,7.42,AU,1691185777
319,colonia,50.9333,6.95,16.640000000000043,83,0,1.03,DE,1691185778
320,tateyama,34.9833,139.8667,27.49000000000001,84,0,5.53,JP,1691185778
321,dongsheng,39.8161,109.9776,20.890000000000043,64,7,2.98,CN,1691185779
322,kismayo,-0.3582,42.5454,24.420000000000016,83,88,8.56,SO,1691185781
323,antofagasta,-23.65,-70.4,18.600000000000023,82,16,2.33,CL,1691185610
324,cannonvale,-20.2833,148.7,17.660000000000025,86,46,7.03,AU,1691185783
325,laojunmiao,39.8333,97.7333,20.620000000000005,41,100,6.05,CN,1691185784
326,sitangkai,4.6628,119.3928,28.950000000000045,73,8,3.62,PH,1691185784
327,birzebbuga,35.8258,14.5269,28.379999999999995,78,0,2.57,MT,1691185785
328,greymouth,-42.4667,171.2,8.150000000000034,82,100,2.51,NZ,1691185788
329,heunghae,36.1125,129.3522,26.939999999999998,81,0,1.4,KR,1691185789
330,lazaro cardenas,17.9583,-102.2,25.980000000000018,86,100,4.25,MX,1691185790
331,yunak,38.8142,31.7322,24.30000000000001,28,0,1.86,TR,1691185790
332,bairnsdale,-37.8333,147.6167,8.920000000000016,80,42,0.45,AU,1691185791
333,nola,40.922,14.5329,25.090000000000032,90,96,3.32,IT,1691185791
334,gisborne,-38.6533,178.0042,11.480000000000018,72,67,3.49,NZ,1691185792
335,ar rutbah,33.0381,40.2848,30.05000000000001,33,0,3.73,IQ,1691185792
336,la'ie,21.6477,-157.9253,30.980000000000018,67,12,6.25,US,1691185793
337,dunedin,-45.8742,170.5036,7.82000000000005,86,95,3.13,NZ,1691185793
338,hadibu,12.65,54.0333,26.03000000000003,79,100,10.05,YE,1691185794
339,kenai,60.5544,-151.2583,16.189999999999998,67,100,3.09,US,1691185794
340,azul,-36.777,-59.8585,7.990000000000009,50,0,2.3,AR,1691185797
341,kirsehir,39.3333,34.1667,18.670000000000016,49,0,2.21,TR,1691185800
342,heihe,50.2441,127.4902,13.32000000000005,65,100,1.75,CN,1691185800
343,concepcion,-36.827,-73.0498,13.890000000000043,54,0,4.12,CL,1691185608
344,mantua,45.1667,10.7833,19.53000000000003,89,100,0.89,IT,1691185801
345,sisimiut,66.9395,-53.6735,6.170000000000016,86,99,1.95,GL,1691185801
346,saint-philippe,-21.3585,55.7679,19.77000000000004,82,98,7.49,RE,1691185802
347,luco dei marsi,41.957,13.4736,16.430000000000007,85,92,1.67,IT,1691185803
348,forquilha,-3.7983,-40.2606,27.660000000000025,54,85,3.83,BR,1691185804
349,ulladulla,-35.35,150.4667,16.450000000000045,64,100,3.19,AU,1691185805
350,kavieng,-2.5744,150.7967,27.730000000000018,79,70,4.37,PG,1691185805
351,borskoye,53.0333,51.7167,20.77000000000004,63,10,0.65,RU,1691185806
352,barcelos,41.5388,-8.6151,23.160000000000025,60,7,2.86,PT,1691185806
353,zarate,-34.0981,-59.0286,14.420000000000016,56,49,2.25,AR,1691185807
354,bayanhongor,46.7167,100.1167,10.230000000000018,78,43,0.43,MN,1691185808
355,grand falls-windsor,48.9332,-55.6649,21.860000000000014,55,16,1.1,CA,1691185808
356,kerman,30.2832,57.0788,25.920000000000016,13,0,3.09,IR,1691185809
357,sitka,57.0531,-135.33,18.939999999999998,72,20,2.57,US,1691185809
358,pisco,-13.7,-76.2167,21.03000000000003,68,0,4.63,PE,1691185810
359,al jubayl,27.0112,49.6583,35.30000000000001,32,1,6.03,SA,1691185810
360,ketchikan,55.3422,-131.6461,23.260000000000048,49,0,4.63,US,1691185811
361,san pedro de jujuy,-24.2313,-64.8661,26.05000000000001,44,0,2.51,AR,1691185811
362,chonchi,-42.6128,-73.8092,8.560000000000002,95,87,1.27,CL,1691185812
363,mata-utu,-13.2816,-176.1745,27.640000000000043,77,95,7.35,WF,1691185812
364,warrnambool,-38.3833,142.4833,8.520000000000039,66,88,6.55,AU,1691185813
365,arauca,7.0847,-70.7591,25.980000000000018,89,20,2.06,CO,1691185814
366,novyy turtkul',41.55,61.0167,24.950000000000045,20,1,3.98,UZ,1691185814
367,palu,-0.8917,119.8707,23.950000000000045,95,14,1.36,ID,1691185815
368,sao vicente,-23.9631,-46.3919,23.100000000000023,88,100,1.54,BR,1691185815
369,north bend,43.4065,-124.2243,27.910000000000025,68,0,9.26,US,1691185816
370,esikhaleni,-28.871,31.8996,18.150000000000034,71,56,6.57,ZA,1691185817
371,mana,5.6592,-53.7767,26.590000000000032,83,11,4.3,GF,1691185817
372,fale old settlement,-9.3852,-171.2468,27.58000000000004,79,62,5.91,TK,1691185818
373,papao,-17.75,-149.55,26.82000000000005,77,83,6.08,PF,1691185819
374,port macquarie,-31.4333,152.9167,9.379999999999995,73,100,2.37,AU,1691185573
375,port hueneme,34.1478,-119.1951,35.110000000000014,67,0,6.69,US,1691185820
376,naze,28.3667,129.4833,25.510000000000048,92,100,12.83,JP,1691185820
377,timmins,48.4669,-81.3331,19.900000000000034,56,75,6.17,CA,1691185821
378,bandarbeyla,9.4942,50.8122,24.260000000000048,85,65,14.48,SO,1691185821
379,port blair,11.6667,92.75,28.02000000000004,83,75,5.66,IN,1691185822
380,paidha,2.4167,30.9855,17.060000000000002,85,85,1.5,UG,1691185822
381,kitimat,54.0524,-128.6534,27.210000000000036,39,62,1.2,CA,1691185823
382,tarawa,1.419,172.984,27.05000000000001,89,75,0.0,KI,1691185823
383,ubari,26.5921,12.7805,33.35000000000002,15,0,3.47,LY,1691185824
384,fortuna,40.5982,-124.1573,19.810000000000002,75,0,6.17,US,1691185825
385,belaya kalitva,48.17,40.78,25.480000000000018,49,0,2.03,RU,1691185825
386,nova vicosa,-17.8919,-39.3719,22.160000000000025,81,5,3.38,BR,1691185826
387,wakkanai,45.4094,141.6739,15.050000000000011,94,100,4.47,JP,1691185826
388,santa cruz,-17.8,-63.1667,31.03000000000003,35,0,7.2,BO,1691185827
389,brookings,44.3114,-96.7984,30.189999999999998,77,100,6.69,US,1691185684
390,minas de marcona,-15.2119,-75.1103,15.5,65,7,3.66,PE,1691185828
391,zemio,5.0314,25.1361,20.360000000000014,99,100,0.37,CF,1691185829
392,nuku'alofa,-21.1333,-175.2,21.189999999999998,73,100,7.72,TO,1691185829
393,ayacucho,-13.1583,-74.2239,22.920000000000016,21,40,1.54,PE,1691185830
394,eyl,7.9803,49.8164,25.420000000000016,77,25,11.81,SO,1691185832
395,bardai,11.65,7.2333,22.590000000000032,90,80,2.78,NG,1691185832
396,mhango,-3.2833,32.85,20.470000000000027,45,86,3.33,TZ,1691185833
397,mitsamiouli,-11.3847,43.2844,24.910000000000025,77,9,2.64,KM,1691185834
398,puerto varas,-41.3195,-72.9854,8.120000000000005,76,0,6.17,CL,1691185835
399,amnat charoen,15.9167,104.75,23.610000000000014,94,100,3.69,TH,1691185836
400,kiunga,-6.1219,141.2906,22.410000000000025,92,90,1.16,PG,1691185837
401,jiaojiang,28.6803,121.4428,25.5,90,91,2.83,CN,1691185837
402,san andres,12.5847,-81.7006,31.010000000000048,70,40,4.63,CO,1691185838
403,kill devil hills,36.0307,-75.676,25.0,94,100,4.63,US,1691185839
404,senador jose porfirio,-2.5908,-51.9542,29.660000000000025,55,65,1.16,BR,1691185840
405,cooper's town,26.8667,-77.5167,28.5,73,88,3.83,BS,1691185842
406,krasnoturansk,54.3186,91.5639,15.350000000000023,89,74,1.05,RU,1691185842
407,bel ombre,-4.6167,55.4167,25.910000000000025,78,20,6.69,SC,1691185845
408,sweet home,44.3976,-122.7362,31.960000000000036,41,56,3.58,US,1691185578
409,richards bay,-28.783,32.0377,18.260000000000048,72,52,5.67,ZA,1691185809
410,rio grande,-32.035,-52.0986,18.060000000000002,87,31,4.82,BR,1691185688
411,vila velha,-20.3297,-40.2925,21.970000000000027,92,0,2.57,BR,1691185847
412,domna,51.8971,113.1573,9.090000000000032,93,20,2.0,RU,1691185848
413,ciudad bolivar,8.1222,-63.5497,30.760000000000048,60,98,1.35,VE,1691185848
414,dul'durga,50.6761,113.5931,11.600000000000023,84,1,0.72,RU,1691185849
415,korla,41.7597,86.1469,27.420000000000016,21,0,0.97,CN,1691185850
416,kondopoga,62.2057,34.2614,16.82000000000005,96,16,2.11,RU,1691185850
417,queenstown,-31.8976,26.8753,11.590000000000032,45,98,2.24,ZA,1691185851
418,kyosai,34.8503,128.5886,25.980000000000018,83,0,3.07,KR,1691185852
419,guerrero negro,27.9769,-114.0611,24.470000000000027,57,0,9.52,MX,1691185694
420,kungur,57.4368,56.9593,17.200000000000045,83,72,1.09,RU,1691185852
421,glen innes,-29.7333,151.7333,7.939999999999998,76,84,0.88,AU,1691185853
422,mossel bay,-34.1831,22.146,11.960000000000036,83,0,0.96,ZA,1691185854
423,kununurra,-15.7667,128.7333,23.99000000000001,41,100,3.09,AU,1691185854
424,crane,31.3974,-102.3501,38.960000000000036,17,0,5.73,US,1691185855
425,zaozersk,69.4005,32.4476,16.79000000000002,98,100,1.47,RU,1691185855
426,opuwo,-18.0607,13.84,16.910000000000025,32,1,2.85,NA,1691185856
427,srandakan,-7.9386,110.2506,21.53000000000003,88,5,2.03,ID,1691185856
428,vilyuchinsk,52.9306,158.4028,17.150000000000034,75,7,3.38,RU,1691185857
429,miyaly,48.8844,53.7836,27.27000000000004,41,33,2.94,KZ,1691185858
430,abergele,53.2844,-3.5822,14.730000000000018,75,100,2.59,GB,1691185858
431,hafar al-batin,28.4328,45.9708,35.32000000000005,11,0,2.06,SA,1691185859
432,spruce grove,53.5334,-113.9187,24.32000000000005,52,0,3.09,CA,1691185623
433,alexandria,31.2156,29.9553,24.30000000000001,66,0,1.44,EG,1691185860
434,pacific grove,36.6177,-121.9166,24.75,85,20,5.14,US,1691185739
435,zhalantun,48.0,122.7167,15.090000000000032,87,100,7.49,CN,1691185860
436,hanover,52.3705,9.7332,16.629999999999995,94,75,1.03,DE,1691185861
437,pachperwa,27.5167,82.65,26.680000000000007,85,92,2.42,IN,1691185863
438,ceeldheer,3.8488,47.1806,24.58000000000004,86,62,8.69,SO,1691185863
439,tidjikja,18.5564,-11.4271,34.09000000000003,23,30,6.91,MR,1691185864
440,indianola,41.3581,-93.5574,30.0,75,100,4.52,US,1691185864
441,kilindoni,-7.9139,39.6668,24.75,79,21,8.38,TZ,1691185865
442,sabha,27.0377,14.4283,33.05000000000001,15,0,0.64,LY,1691185865
443,saint-pierre,-21.3393,55.4781,21.430000000000007,77,75,8.75,RE,1691185866
444,bahia de kino,28.8333,-111.9333,42.18000000000001,47,0,4.84,MX,1691185867
445,komotini,41.1228,25.3964,28.920000000000016,53,0,2.33,GR,1691185867
446,la ronge,55.1001,-105.2842,22.140000000000043,56,75,7.2,CA,1691185868
447,selfoss,63.9331,-20.9971,11.140000000000043,81,100,1.29,IS,1691185868
448,chilecito,-29.1619,-67.4974,16.510000000000048,42,1,3.22,AR,1691185870
449,kristiansund,63.1115,7.732,13.03000000000003,82,75,1.54,NO,1691185872
450,conde,-7.2597,-34.9075,24.700000000000045,78,0,4.63,BR,1691185873
451,altamira,-3.2033,-52.2064,28.05000000000001,78,0,0.0,BR,1691185588
452,pontianak,-0.0333,109.3333,25.99000000000001,100,75,1.03,ID,1691185809
453,karaton,-6.3424,106.1045,23.0,94,39,0.28,ID,1691185874
454,saldanha,-33.0117,17.9442,8.03000000000003,89,13,3.81,ZA,1691185875
455,felipe carrillo puerto,19.5833,-88.05,34.74000000000001,42,36,4.15,MX,1691185876
456,kaliganj,23.4095,89.1402,26.260000000000048,92,100,3.41,BD,1691185876
457,el bauga,18.262,33.9081,33.31,38,2,3.12,SD,1691185877
458,dodge city,37.7528,-100.0171,34.01000000000005,44,0,0.89,US,1691185877
459,darwin,-12.4611,130.8418,24.99000000000001,78,0,1.03,AU,1691185877
460,doka,13.5167,35.7667,22.170000000000016,89,99,6.84,SD,1691185878
461,wauchope,-31.45,152.7333,9.980000000000018,70,99,0.86,AU,1691185878
462,saint-joseph,-21.3667,55.6167,20.82000000000005,81,82,7.82,RE,1691185879
463,broome,42.2506,-75.833,25.430000000000007,86,100,3.13,US,1691185879
464,tindouf,27.6711,-8.1474,30.25,35,0,8.23,DZ,1691185880
465,nantucket,41.2835,-70.0995,24.08000000000004,83,0,4.63,US,1691185813
466,copala,16.65,-98.9833,29.720000000000027,65,94,5.13,MX,1691185881
467,tolanaro,-25.0319,46.9987,20.04000000000002,68,40,5.14,MG,1691185881
468,mount isa,-20.7333,139.5,18.870000000000005,52,100,2.06,AU,1691185882
469,marrakesh,31.6315,-8.0083,29.04000000000002,39,0,4.63,MA,1691185882
470,cushing,35.9851,-96.767,39.06,36,0,1.54,US,1691185883
471,temryuk,45.2722,37.3811,24.120000000000005,61,0,3.63,RU,1691185883
472,waingapu,-9.6567,120.2641,24.110000000000014,86,17,6.87,ID,1691185884
473,walvis bay,-22.9575,14.5053,11.53000000000003,87,0,0.0,NA,1691185884
474,fabens,31.5023,-106.1586,40.32000000000005,16,1,2.23,US,1691185885
475,acolla,-11.7319,-75.5463,12.390000000000043,48,72,3.24,PE,1691185885
476,taiynsha,53.8478,69.7639,21.620000000000005,65,100,2.0,KZ,1691185886
477,namsos,64.4662,11.4957,13.03000000000003,82,75,2.06,NO,1691185886
478,posto fiscal rolim de moura,-13.0833,-62.2667,29.960000000000036,28,1,1.12,BR,1691185887
479,chirilagua,13.2203,-88.1386,34.83000000000004,38,12,1.88,SV,1691185888
480,shingu,33.7333,135.9833,27.010000000000048,90,83,1.63,JP,1691185888
481,lappeenranta,61.0587,28.1887,19.32000000000005,100,100,3.6,FI,1691185889
482,tangalle,6.024,80.7911,26.090000000000032,91,93,4.3,LK,1691185717
483,qiqihar,47.3408,123.9672,13.660000000000025,94,100,7.84,CN,1691185890
484,neryungri,56.6709,124.6491,14.340000000000032,70,60,1.42,RU,1691185665
485,velez rubio,37.6484,-2.0769,21.49000000000001,81,51,1.29,ES,1691185891
486,portland,45.5234,-122.6762,31.960000000000036,45,75,3.09,US,1691185624
487,ancud,-41.8697,-73.8203,7.28000000000003,81,38,2.66,CL,1691185892
488,katsuura,35.1333,140.3,27.600000000000023,81,0,6.0,JP,1691185892
489,vilhena,-12.7406,-60.1458,32.120000000000005,25,0,3.09,BR,1691185893
490,dhamar,14.5427,44.4051,19.220000000000027,47,90,0.51,YE,1691185893
491,naha,26.2125,127.6811,27.379999999999995,96,75,20.06,JP,1691185894
492,thunder bay,48.4001,-89.3168,22.99000000000001,53,75,5.66,CA,1691185820
493,paramonga,-10.6667,-77.8333,19.879999999999995,76,13,4.84,PE,1691185895
494,cambria,35.5641,-121.0808,34.68000000000001,55,24,6.82,US,1691185896
495,rusape,-18.5278,32.1284,9.57000000000005,86,74,1.94,ZW,1691185896
496,aydarken,39.9443,71.3429,18.08000000000004,45,41,0.98,KG,1691185897
497,anloga,5.7947,0.8973,24.82000000000005,88,21,5.53,GH,1691185897
498,ishigaki,24.3448,124.1572,27.07000000000005,100,75,2.57,JP,1691185897
499,salinopolis,-0.6136,-47.3561,26.760000000000048,80,4,4.76,BR,1691185898
500,bamboo flat,11.7,92.7167,28.05000000000001,83,75,5.66,IN,1691185898
501,la sarre,48.8002,-79.1996,18.410000000000025,60,79,5.46,CA,1691185899
502,filey,54.21,-0.2892,12.82000000000005,90,100,1.88,GB,1691185899
503,cill airne,52.05,-9.5167,13.050000000000011,96,100,3.67,IE,1691185900
504,westport,41.1415,-73.3579,24.900000000000034,79,100,5.66,US,1691185900
505,dulce grande,23.0,-102.1667,25.80000000000001,34,99,8.45,MX,1691185901
506,halifax,44.6453,-63.5724,21.939999999999998,75,23,4.12,CA,1691185733
507,mato verde,-15.3972,-42.8664,24.680000000000007,30,93,2.67,BR,1691185902
508,cadale,2.7603,46.3222,25.180000000000007,83,83,8.71,SO,1691185902
509,calcot,51.4406,-1.0509,15.900000000000034,73,100,1.03,GB,1691185903
510,tarko-sale,64.9225,77.785,15.240000000000009,55,5,4.31,RU,1691185903
511,cestos city,5.46,-9.5828,24.910000000000025,89,73,3.62,LR,1691185904
512,thames,-37.1333,175.5333,11.960000000000036,82,53,1.95,NZ,1691185904
513,taoudenni,22.6783,-3.9836,41.700000000000045,11,29,3.22,ML,1691185905
514,nieuw amsterdam,5.8833,-55.0833,28.900000000000034,80,35,4.53,SR,1691185905
515,vorkuta,67.5,64.0,18.939999999999998,74,9,1.79,RU,1691185905
516,wau,7.7029,27.9953,21.0,97,47,2.9,SS,1691185906
517,kollam,8.8833,76.6,25.230000000000018,87,38,4.11,IN,1691185906
518,bahar,34.9072,48.4414,24.090000000000032,16,20,1.03,IR,1691185907
519,kalemie,-5.9475,29.1947,21.610000000000014,63,22,1.04,CD,1691185907
520,mangawan,24.6833,81.55,25.24000000000001,92,100,5.41,IN,1691185908
521,ta'izz,13.5,44.0,23.629999999999995,54,100,2.23,YE,1691185908
522,beira,-19.8436,34.8389,20.05000000000001,88,75,0.0,MZ,1691185909
523,marsh harbour,26.5412,-77.0636,29.07000000000005,71,82,3.78,BS,1691185909
524,turaif,31.6725,38.6637,27.140000000000043,44,0,9.26,SA,1691185910
525,tynda,55.1667,124.7167,13.25,74,0,0.36,RU,1691185910
526,khandyga,62.6667,135.6,17.58000000000004,59,23,0.14,RU,1691185911
527,touros,-5.1989,-35.4608,25.090000000000032,74,61,7.24,BR,1691185911
528,gorokhovets,56.1947,42.7003,21.110000000000014,84,55,1.97,RU,1691185912
529,boysun,38.2061,67.1986,25.30000000000001,20,0,2.49,UZ,1691185912
530,mandalgovi,45.7625,106.2708,16.910000000000025,74,92,5.5,MN,1691185914
531,brokopondo,4.75,-55.1667,29.53000000000003,65,9,0.27,SR,1691185915
532,nahiyat ash shinafiyah,31.5874,44.6602,35.78000000000003,17,0,4.07,IQ,1691185915
533,ocean city,39.2776,-74.5746,22.140000000000043,88,46,3.13,US,1691185706
534,fauske,67.2588,15.3918,11.54000000000002,90,89,2.75,NO,1691185916
535,barkhan,29.8977,69.5256,27.700000000000045,64,27,2.9,PK,1691185917
536,caibarien,22.5206,-79.4669,31.620000000000005,66,21,4.9,CU,1691185657
537,zabaykal'sk,49.6333,117.3167,11.78000000000003,91,96,2.88,RU,1691185918
538,muisne,0.6,-80.0333,26.220000000000027,83,95,4.4,EC,1691185918
539,horta,38.5333,-28.6333,21.680000000000007,83,35,1.34,PT,1691185765
540,nizhniy odes,63.6445,54.856,16.640000000000043,97,17,2.21,RU,1691185919
541,imperatriz,-5.5264,-47.4917,32.670000000000016,28,89,1.57,BR,1691185919
542,bidbid,23.4079,58.1283,28.700000000000045,37,94,1.1,OM,1691185920
543,torzhok,57.0436,34.9622,17.80000000000001,80,84,2.61,RU,1691185921
544,hanzhong,33.0728,107.0303,22.470000000000027,92,54,0.85,CN,1691185921
